{
"type": "FeatureCollection",
"name": "CTA_RailStations",
"crs": { "type": "name", "properties": { "name": "urn:ogc:def:crs:OGC:1.3:CRS84" } },
"features": [
{ "type": "Feature", "properties": { "Name": "35-Bronzeville-IIT", "description": null, "altitudeMode": "clampToGround", "PKNRD": "No", "ADA": "ADA Accessible", "LINES": "Green Line", "STATION_ID": "1120", "POINT_Y": "1882047.587074", "POINT_X": "1177050.915136", "LONGNAME": "35-Bronzeville-IIT", "ADDRESS": "16 E. 35th Street", "GTFS": "41120", "Field_1": "35-Bronzeville-IIT" }, "geometry": { "type": "Point", "coordinates": [ -87.625881474488864, 41.831678020726002 ] } },
{ "type": "Feature", "properties": { "Name": "Granville", "description": null, "altitudeMode": "clampToGround", "PKNRD": "No", "ADA": "ADA Accessible", "LINES": "Red Line", "STATION_ID": "760", "POINT_Y": "1941002.514489", "POINT_X": "1167506.039095", "LONGNAME": "Granville", "ADDRESS": "1119 W. Granville Avenue", "GTFS": "40760", "Field_1": "Granville" }, "geometry": { "type": "Point", "coordinates": [ -87.659202279489378, 41.993664260095237 ] } },
{ "type": "Feature", "properties": { "Name": "Wellington", "description": null, "altitudeMode": "clampToGround", "PKNRD": "No", "ADA": "ADA Accessible", "LINES": "Brown, Purple (Express)", "STATION_ID": "1210", "POINT_Y": "1920014.046245", "POINT_X": "1169286.335032", "LONGNAME": "Wellington", "ADDRESS": "945 W. Wellington Avenue", "GTFS": "41210", "Field_1": "Wellington" }, "geometry": { "type": "Point", "coordinates": [ -87.65326645004653, 41.936032601743257 ] } },
{ "type": "Feature", "properties": { "Name": "Dempster-Skokie", "description": null, "altitudeMode": "clampToGround", "PKNRD": "Yes", "ADA": "ADA Accessible", "LINES": "Yellow Line", "STATION_ID": "140", "POINT_Y": "1957320.432456", "POINT_X": "1142189.799199", "LONGNAME": "Dempster-Skokie", "ADDRESS": "5001 W. Dempster Street", "GTFS": "40140", "Field_1": "Dempster-Skokie" }, "geometry": { "type": "Point", "coordinates": [ -87.75191862595247, 42.038950692448743 ] } },
{ "type": "Feature", "properties": { "Name": "Washington", "description": null, "altitudeMode": "clampToGround", "PKNRD": "No", "ADA": "Not ADA  Accessible", "LINES": "Blue Line", "STATION_ID": "370", "POINT_Y": "1900801.153299", "POINT_X": "1175927.28403", "LONGNAME": "Washington\/Dearborn", "ADDRESS": "19 N. Dearborn", "GTFS": "40370", "Field_1": "Washington" }, "geometry": { "type": "Point", "coordinates": [ -87.629440059646697, 41.883164425627527 ] } },
{ "type": "Feature", "properties": { "Name": "Western", "description": null, "altitudeMode": "clampToGround", "PKNRD": "No", "ADA": "ADA Accessible", "LINES": "Brown Line", "STATION_ID": "1480", "POINT_Y": "1930951.297583", "POINT_X": "1159616.195119", "LONGNAME": "Western-Ravenswood", "ADDRESS": "4645 N. Western Avenue", "GTFS": "41480", "Field_1": "Western" }, "geometry": { "type": "Point", "coordinates": [ -87.688502605900368, 41.966250047279757 ] } },
{ "type": "Feature", "properties": { "Name": "Addison", "description": null, "altitudeMode": "clampToGround", "PKNRD": "No", "ADA": "ADA Accessible", "LINES": "Brown Line", "STATION_ID": "1440", "POINT_Y": "1923975.429417", "POINT_X": "1163413.938227", "LONGNAME": "Addison-Ravenswood", "ADDRESS": "1818 W. Addison Street", "GTFS": "41440", "Field_1": "Addison" }, "geometry": { "type": "Point", "coordinates": [ -87.674736107446407, 41.94702865443908 ] } },
{ "type": "Feature", "properties": { "Name": "Damen", "description": null, "altitudeMode": "clampToGround", "PKNRD": "No", "ADA": "ADA Accessible", "LINES": "Brown Line", "STATION_ID": "90", "POINT_Y": "1931030.290735", "POINT_X": "1162299.35493", "LONGNAME": "Damen-Ravenswood", "ADDRESS": "4643 N. Damen Avenue", "GTFS": "40090", "Field_1": "Damen" }, "geometry": { "type": "Point", "coordinates": [ -87.678634884330549, 41.966410971826441 ] } },
{ "type": "Feature", "properties": { "Name": "LaSalle\/Van Buren", "description": null, "altitudeMode": "clampToGround", "PKNRD": "No", "ADA": "Not ADA  Accessible", "LINES": "Brown, Orange, Pink, Purple (Express)", "STATION_ID": "160", "POINT_Y": "1898497.010449", "POINT_X": "1175321.456958", "LONGNAME": "LaSalle\/Van Buren", "ADDRESS": "121 W. Van Buren Street", "GTFS": "40160", "Field_1": "LaSalle\/Van Buren" }, "geometry": { "type": "Point", "coordinates": [ -87.631733834359437, 41.876855334141922 ] } },
{ "type": "Feature", "properties": { "Name": "Harrison", "description": null, "altitudeMode": "clampToGround", "PKNRD": "No", "ADA": "Not ADA  Accessible", "LINES": "Red Line", "STATION_ID": "1490", "POINT_Y": "1897480.330512", "POINT_X": "1176488.619071", "LONGNAME": "Harrison", "ADDRESS": "608 S. State Street", "GTFS": "41490", "Field_1": "Harrison" }, "geometry": { "type": "Point", "coordinates": [ -87.627479117703757, 41.874039243116719 ] } },
{ "type": "Feature", "properties": { "Name": "Oak Park", "description": null, "altitudeMode": "clampToGround", "PKNRD": "No", "ADA": "Not ADA  Accessible", "LINES": "Green Line (Lake)", "STATION_ID": "1350", "POINT_Y": "1901870.06722", "POINT_X": "1131166.009621", "LONGNAME": "Oak Park-Lake", "ADDRESS": "100 S. Oak Park Avenue", "GTFS": "41350", "Field_1": "Oak Park" }, "geometry": { "type": "Point", "coordinates": [ -87.79378335175879, 41.886987520675667 ] } },
{ "type": "Feature", "properties": { "Name": "Ashland", "description": null, "altitudeMode": "clampToGround", "PKNRD": "No", "ADA": "ADA Accessible", "LINES": "Green (Lake), Pink", "STATION_ID": "170", "POINT_Y": "1901501.956884", "POINT_X": "1165706.563893", "LONGNAME": "Ashland-Lake", "ADDRESS": "1601 W. Lake Street", "GTFS": "40170", "Field_1": "Ashland" }, "geometry": { "type": "Point", "coordinates": [ -87.666950936612807, 41.885311394641789 ] } },
{ "type": "Feature", "properties": { "Name": "Grand", "description": null, "altitudeMode": "clampToGround", "PKNRD": "No", "ADA": "Not ADA  Accessible", "LINES": "Blue Line (O'Hare)", "STATION_ID": "490", "POINT_Y": "1903685.42031", "POINT_X": "1170964.658746", "LONGNAME": "Grand\/Milwaukee", "ADDRESS": "502 N. Milwaukee Avenue", "GTFS": "40490", "Field_1": "Grand" }, "geometry": { "type": "Point", "coordinates": [ -87.647578310152468, 41.891189293129912 ] } },
{ "type": "Feature", "properties": { "Name": "Damen", "description": null, "altitudeMode": "clampToGround", "PKNRD": "No", "ADA": "Not ADA  Accessible", "LINES": "Blue Line", "STATION_ID": "590", "POINT_Y": "1910383.12246", "POINT_X": "1162783.21413", "LONGNAME": "Damen\/Milwaukee", "ADDRESS": "1558 N. Damen Avenue", "GTFS": "40590", "Field_1": "Damen" }, "geometry": { "type": "Point", "coordinates": [ -87.677436654499843, 41.909743791526701 ] } },
{ "type": "Feature", "properties": { "Name": "Belmont", "description": null, "altitudeMode": "clampToGround", "PKNRD": "No", "ADA": "Not ADA  Accessible", "LINES": "Blue Line", "STATION_ID": "60", "POINT_Y": "1920656.947494", "POINT_X": "1153202.401577", "LONGNAME": "Belmont-O'Hare", "ADDRESS": "3355 W. Belmont Avenue", "GTFS": "40060", "Field_1": "Belmont" }, "geometry": { "type": "Point", "coordinates": [ -87.712359350573408, 41.938131668841052 ] } },
{ "type": "Feature", "properties": { "Name": "Jefferson Park", "description": null, "altitudeMode": "clampToGround", "PKNRD": "No", "ADA": "ADA Accessible", "LINES": "Blue Line", "STATION_ID": "1280", "POINT_Y": "1932409.028401", "POINT_X": "1139918.571549", "LONGNAME": "Jefferson Park", "ADDRESS": "4917 N. Milwaukee Avenue", "GTFS": "41280", "Field_1": "Jefferson Park" }, "geometry": { "type": "Point", "coordinates": [ -87.760892279275936, 41.970634137184241 ] } },
{ "type": "Feature", "properties": { "Name": "47th", "description": null, "altitudeMode": "clampToGround", "PKNRD": "No", "ADA": "ADA Accessible", "LINES": "Red Line", "STATION_ID": "1230", "POINT_Y": "1874259.92345", "POINT_X": "1175712.492862", "LONGNAME": "47th-Dan Ryan", "ADDRESS": "220 W. 47th Street", "GTFS": "41230", "Field_1": "47th" }, "geometry": { "type": "Point", "coordinates": [ -87.631025797100975, 41.810338131874843 ] } },
{ "type": "Feature", "properties": { "Name": "Cottage Grove", "description": null, "altitudeMode": "clampToGround", "PKNRD": "No", "ADA": "ADA Accessible", "LINES": "Green Line", "STATION_ID": "720", "POINT_Y": "1863374.476528", "POINT_X": "1182666.518085", "LONGNAME": "Cottage Grove", "ADDRESS": "800 E. 63rd Street", "GTFS": "40720", "Field_1": "Cottage Grove" }, "geometry": { "type": "Point", "coordinates": [ -87.605857417478518, 41.78030876683156 ] } },
{ "type": "Feature", "properties": { "Name": "Halsted", "description": null, "altitudeMode": "clampToGround", "PKNRD": "No", "ADA": "ADA Accessible", "LINES": "Green Line", "STATION_ID": "940", "POINT_Y": "1862821.97016", "POINT_X": "1172260.636475", "LONGNAME": "Halsted\/63rd", "ADDRESS": "6321 S. Halsted Street", "GTFS": "40940", "Field_1": "Halsted" }, "geometry": { "type": "Point", "coordinates": [ -87.644023127218006, 41.779027867183537 ] } },
{ "type": "Feature", "properties": { "Name": "47th", "description": null, "altitudeMode": "clampToGround", "PKNRD": "No", "ADA": "ADA Accessible", "LINES": "Green Line", "STATION_ID": "1080", "POINT_Y": "1873875.82873", "POINT_X": "1179041.796929", "LONGNAME": "47th-South Elevated", "ADDRESS": "314 E. 47th Street", "GTFS": "41080", "Field_1": "47th" }, "geometry": { "type": "Point", "coordinates": [ -87.618826128583507, 41.809208834079399 ] } },
{ "type": "Feature", "properties": { "Name": "Loyola", "description": null, "altitudeMode": "clampToGround", "PKNRD": "No", "ADA": "ADA Accessible", "LINES": "Red Line", "STATION_ID": "1300", "POINT_Y": "1943698.465339", "POINT_X": "1166979.645238", "LONGNAME": "Loyola", "ADDRESS": "1200 W. Loyola Avenue", "GTFS": "41300", "Field_1": "Loyola" }, "geometry": { "type": "Point", "coordinates": [ -87.661060700859693, 42.001073358663568 ] } },
{ "type": "Feature", "properties": { "Name": "Berwyn", "description": null, "altitudeMode": "clampToGround", "PKNRD": "No", "ADA": "Not ADA  Accessible", "LINES": "Red Line", "STATION_ID": "340", "POINT_Y": "1935289.679411", "POINT_X": "1167696.175159", "LONGNAME": "Berwyn", "ADDRESS": "1121 W. Berwyn Avenue", "GTFS": "40340", "Field_1": "Berwyn" }, "geometry": { "type": "Point", "coordinates": [ -87.658668419695886, 41.977983991605981 ] } },
{ "type": "Feature", "properties": { "Name": "Chicago", "description": null, "altitudeMode": "clampToGround", "PKNRD": "No", "ADA": "ADA Accessible", "LINES": "Red Line", "STATION_ID": "1450", "POINT_Y": "1905725.849368", "POINT_X": "1176230.958143", "LONGNAME": "Chicago\/State", "ADDRESS": "800 N. State Street", "GTFS": "41450", "Field_1": "Chicago" }, "geometry": { "type": "Point", "coordinates": [ -87.628176352562335, 41.89667121189094 ] } },
{ "type": "Feature", "properties": { "Name": "Sedgwick", "description": null, "altitudeMode": "clampToGround", "PKNRD": "No", "ADA": "ADA Accessible", "LINES": "Brown, Purple (Express)", "STATION_ID": "800", "POINT_Y": "1910707.2735", "POINT_X": "1173161.406268", "LONGNAME": "Sedgwick", "ADDRESS": "1536 N. Sedgwick Avenue", "GTFS": "40800", "Field_1": "Sedgwick" }, "geometry": { "type": "Point", "coordinates": [ -87.639302164545185, 41.910409179359412 ] } },
{ "type": "Feature", "properties": { "Name": "Pulaski", "description": null, "altitudeMode": "clampToGround", "PKNRD": "No", "ADA": "Not ADA  Accessible", "LINES": "Blue Line (Congress)", "STATION_ID": "920", "POINT_Y": "1897220.947728", "POINT_X": "1149758.983206", "LONGNAME": "Pulaski-Congress", "ADDRESS": "530 S. Pulaski Road", "GTFS": "40920", "Field_1": "Pulaski" }, "geometry": { "type": "Point", "coordinates": [ -87.725624930077004, 41.873888723506958 ] } },
{ "type": "Feature", "properties": { "Name": "Harlem", "description": null, "altitudeMode": "clampToGround", "PKNRD": "No", "ADA": "Not ADA  Accessible", "LINES": "Blue Line (Congress)", "STATION_ID": "980", "POINT_Y": "1896929.332495", "POINT_X": "1127608.009233", "LONGNAME": "Harlem-Congress", "ADDRESS": "701 S. Harlem Avenue", "GTFS": "40980", "Field_1": "Harlem" }, "geometry": { "type": "Point", "coordinates": [ -87.806960872650208, 41.873490050964463 ] } },
{ "type": "Feature", "properties": { "Name": "Kedzie-Homan", "description": null, "altitudeMode": "clampToGround", "PKNRD": "No", "ADA": "ADA Accessible", "LINES": "Blue Line (Congress)", "STATION_ID": "250", "POINT_Y": "1897455.047184", "POINT_X": "1155108.324907", "LONGNAME": "Kedzie-Homan", "ADDRESS": "530 S. Kedzie Avenue", "GTFS": "40250", "Field_1": "Kedzie-Homan" }, "geometry": { "type": "Point", "coordinates": [ -87.705978295390295, 41.874425508072292 ] } },
{ "type": "Feature", "properties": { "Name": "Monroe", "description": null, "altitudeMode": "clampToGround", "PKNRD": "No", "ADA": "Not ADA  Accessible", "LINES": "Red Line", "STATION_ID": "1090", "POINT_Y": "1899923.25429", "POINT_X": "1176409.337151", "LONGNAME": "Monroe\/State", "ADDRESS": "26 S. State", "GTFS": "41090", "Field_1": "Monroe" }, "geometry": { "type": "Point", "coordinates": [ -87.627696459512563, 41.880744557854513 ] } },
{ "type": "Feature", "properties": { "Name": "Ridgeland", "description": null, "altitudeMode": "clampToGround", "PKNRD": "No", "ADA": "Not ADA  Accessible", "LINES": "Green Line (Lake)", "STATION_ID": "610", "POINT_Y": "1901950.19138", "POINT_X": "1133921.860375", "LONGNAME": "Ridgeland", "ADDRESS": "36 N. Ridgeland Avenue", "GTFS": "40610", "Field_1": "Ridgeland" }, "geometry": { "type": "Point", "coordinates": [ -87.783661032938014, 41.887159397327792 ] } },
{ "type": "Feature", "properties": { "Name": "Western", "description": null, "altitudeMode": "clampToGround", "PKNRD": "No", "ADA": "ADA Accessible", "LINES": "Blue Line (O'Hare)", "STATION_ID": "670", "POINT_Y": "1912699.74915", "POINT_X": "1160063.300144", "LONGNAME": "Western\/Milwaukee", "ADDRESS": "1909 N. Western Avenue", "GTFS": "40670", "Field_1": "Western" }, "geometry": { "type": "Point", "coordinates": [ -87.687364381398197, 41.91615742819355 ] } },
{ "type": "Feature", "properties": { "Name": "Garfield", "description": null, "altitudeMode": "clampToGround", "PKNRD": "Yes", "ADA": "ADA Accessible", "LINES": "Green Line", "STATION_ID": "510", "POINT_Y": "1868763.718133", "POINT_X": "1179221.195842", "LONGNAME": "Garfield-South Elevated", "ADDRESS": "320 E. Garfield Boulevard", "GTFS": "40510", "Field_1": "Garfield" }, "geometry": { "type": "Point", "coordinates": [ -87.618324107799808, 41.795176652833753 ] } },
{ "type": "Feature", "properties": { "Name": "35th\/Archer", "description": null, "altitudeMode": "clampToGround", "PKNRD": "Yes", "ADA": "ADA Accessible", "LINES": "Orange Line", "STATION_ID": "120", "POINT_Y": "1881157.786881", "POINT_X": "1162147.779122", "LONGNAME": "35th\/Archer", "ADDRESS": "3528 S. Leavitt Street", "GTFS": "40120", "Field_1": "35th\/Archer" }, "geometry": { "type": "Point", "coordinates": [ -87.68058736862578, 41.829560087110103 ] } },
{ "type": "Feature", "properties": { "Name": "Kedzie", "description": null, "altitudeMode": "clampToGround", "PKNRD": "No", "ADA": "ADA Accessible", "LINES": "Pink", "STATION_ID": "1040", "POINT_Y": "1890060.721929", "POINT_X": "1155312.298795", "LONGNAME": "Kedzie-Douglas", "ADDRESS": "1944 S. Kedzie Avenue", "GTFS": "41040", "Field_1": "Kedzie" }, "geometry": { "type": "Point", "coordinates": [ -87.705427956700589, 41.854130585726949 ] } },
{ "type": "Feature", "properties": { "Name": "UIC-Halsted", "description": null, "altitudeMode": "clampToGround", "PKNRD": "No", "ADA": "ADA Accessible", "LINES": "Blue Line", "STATION_ID": "350", "POINT_Y": "1897969.67528", "POINT_X": "1170448.200249", "LONGNAME": "UIC-Halsted", "ADDRESS": "430 S. Halsted Street", "GTFS": "40350", "Field_1": "UIC-Halsted" }, "geometry": { "type": "Point", "coordinates": [ -87.649642230790278, 41.875516208222912 ] } },
{ "type": "Feature", "properties": { "Name": "LaSalle", "description": null, "altitudeMode": "clampToGround", "PKNRD": "No", "ADA": "Not ADA  Accessible", "LINES": "Blue Line", "STATION_ID": "1340", "POINT_Y": "1898027.796753", "POINT_X": "1175328.495166", "LONGNAME": "LaSalle", "ADDRESS": "150 W. Congress Parkway", "GTFS": "41340", "Field_1": "LaSalle" }, "geometry": { "type": "Point", "coordinates": [ -87.631722075472638, 41.875567625013034 ] } },
{ "type": "Feature", "properties": { "Name": "Armitage", "description": null, "altitudeMode": "clampToGround", "PKNRD": "No", "ADA": "ADA Accessible", "LINES": "Brown, Purple (Express)", "STATION_ID": "660", "POINT_Y": "1913523.191327", "POINT_X": "1169507.151161", "LONGNAME": "Armitage", "ADDRESS": "944 W. Armitage Avenue", "GTFS": "40660", "Field_1": "Armitage" }, "geometry": { "type": "Point", "coordinates": [ -87.652644306004049, 41.918216567150772 ] } },
{ "type": "Feature", "properties": { "Name": "Pulaski", "description": null, "altitudeMode": "clampToGround", "PKNRD": "No", "ADA": "ADA Accessible", "LINES": "Green Line (Lake)", "STATION_ID": "30", "POINT_Y": "1901420.430356", "POINT_X": "1149789.473062", "LONGNAME": "Pulaski-Lake", "ADDRESS": "4000 W. Lake Street", "GTFS": "40030", "Field_1": "Pulaski" }, "geometry": { "type": "Point", "coordinates": [ -87.725403768318159, 41.885411978761972 ] } },
{ "type": "Feature", "properties": { "Name": "Conservatory", "description": null, "altitudeMode": "clampToGround", "PKNRD": "No", "ADA": "ADA Accessible", "LINES": "Green Line (Lake)", "STATION_ID": "1670", "POINT_Y": "1901252.718356", "POINT_X": "1152209.095208", "LONGNAME": "Conservatory-Central Park", "ADDRESS": "3631 W. Lake Street", "GTFS": "41670", "Field_1": "Conservatory" }, "geometry": { "type": "Point", "coordinates": [ -87.716522832917519, 41.884904378811228 ] } },
{ "type": "Feature", "properties": { "Name": "Addison", "description": null, "altitudeMode": "clampToGround", "PKNRD": "No", "ADA": "ADA Accessible", "LINES": "Red Line", "STATION_ID": "1420", "POINT_Y": "1924165.785385", "POINT_X": "1169155.598136", "LONGNAME": "Addison-North Main", "ADDRESS": "940 W. Addison Street", "GTFS": "41420", "Field_1": "Addison" }, "geometry": { "type": "Point", "coordinates": [ -87.653625930771028, 41.947427996530813 ] } },
{ "type": "Feature", "properties": { "Name": "Jackson", "description": null, "altitudeMode": "clampToGround", "PKNRD": "No", "ADA": "ADA Accessible", "LINES": "Blue Line", "STATION_ID": "70", "POINT_Y": "1898986.072337", "POINT_X": "1175981.497151", "LONGNAME": "Jackson\/Dearborn", "ADDRESS": "328 S. Dearborn", "GTFS": "40070", "Field_1": "Jackson" }, "geometry": { "type": "Point", "coordinates": [ -87.62929566463734, 41.878182517932117 ] } },
{ "type": "Feature", "properties": { "Name": "South Boulevard", "description": null, "altitudeMode": "clampToGround", "PKNRD": "No", "ADA": "Not ADA  Accessible", "LINES": "Purple Line, Evanston Express", "STATION_ID": "840", "POINT_Y": "1953332.902468", "POINT_X": "1162211.833138", "LONGNAME": "South Boulevard", "ADDRESS": "601 W. South Boulevard", "GTFS": "40840", "Field_1": "South Boulevard" }, "geometry": { "type": "Point", "coordinates": [ -87.678329416013625, 42.027611847683673 ] } },
{ "type": "Feature", "properties": { "Name": "Bryn Mawr", "description": null, "altitudeMode": "clampToGround", "PKNRD": "No", "ADA": "Not ADA  Accessible", "LINES": "Red Line", "STATION_ID": "1380", "POINT_Y": "1937300.913461", "POINT_X": "1167633.603127", "LONGNAME": "Bryn Mawr", "ADDRESS": "1119 W. Bryn Mawr Avenue", "GTFS": "41380", "Field_1": "Bryn Mawr" }, "geometry": { "type": "Point", "coordinates": [ -87.658840285059469, 41.983504224316782 ] } },
{ "type": "Feature", "properties": { "Name": "Washington\/Wells", "description": null, "altitudeMode": "clampToGround", "PKNRD": "No", "ADA": "ADA Accessible", "LINES": "Brown, Orange, Pink, Purple (Express)", "STATION_ID": "730", "POINT_Y": "1900620.274451", "POINT_X": "1174726.838845", "LONGNAME": "Washington\/Wells", "ADDRESS": "100 N. Wells Street", "GTFS": "40730", "Field_1": "Washington\/Wells" }, "geometry": { "type": "Point", "coordinates": [ -87.633853529931386, 41.882695017561247 ] } },
{ "type": "Feature", "properties": { "Name": "Adams\/Wabash", "description": null, "altitudeMode": "clampToGround", "PKNRD": "No", "ADA": "Not ADA  Accessible", "LINES": "Brown, Orange, Pink,  Purple (Express), Green", "STATION_ID": "680", "POINT_Y": "1899477.045266", "POINT_X": "1176848.366655", "LONGNAME": "Adams\/Wabash", "ADDRESS": "201 S. Wabash Avenue", "GTFS": "40680", "Field_1": "Adams\/Wabash" }, "geometry": { "type": "Point", "coordinates": [ -87.626097899820323, 41.879510218434952 ] } },
{ "type": "Feature", "properties": { "Name": "Harlem", "description": null, "altitudeMode": "clampToGround", "PKNRD": "No", "ADA": "ADA Accessible", "LINES": "Green Line (Lake)", "STATION_ID": "20", "POINT_Y": "1901803.395604", "POINT_X": "1128608.760338", "LONGNAME": "Harlem-Lake", "ADDRESS": "1 S. Harlem Avenue", "GTFS": "40020", "Field_1": "Harlem" }, "geometry": { "type": "Point", "coordinates": [ -87.803175987192134, 41.886848302538588 ] } },
{ "type": "Feature", "properties": { "Name": "95\/Dan Ryan", "description": null, "altitudeMode": "clampToGround", "PKNRD": "No", "ADA": "ADA Accessible", "LINES": "Red Line", "STATION_ID": "450", "POINT_Y": "1842222.005725", "POINT_X": "1177778.980672", "LONGNAME": "95th\/Dan Ryan", "ADDRESS": "14 W. 95th Street", "GTFS": "40450", "Field_1": "95\/Dan Ryan" }, "geometry": { "type": "Point", "coordinates": [ -87.62441474538349, 41.722375983305326 ] } },
{ "type": "Feature", "properties": { "Name": "Garfield", "description": null, "altitudeMode": "clampToGround", "PKNRD": "No", "ADA": "ADA Accessible", "LINES": "Red Line", "STATION_ID": "1170", "POINT_Y": "1868822.887157", "POINT_X": "1175717.820478", "LONGNAME": "Garfield-Dan Ryan", "ADDRESS": "220 W. Garfield Boulevard", "GTFS": "41170", "Field_1": "Garfield" }, "geometry": { "type": "Point", "coordinates": [ -87.631169170031157, 41.795418261177602 ] } },
{ "type": "Feature", "properties": { "Name": "43rd", "description": null, "altitudeMode": "clampToGround", "PKNRD": "No", "ADA": "ADA Accessible", "LINES": "Green Line", "STATION_ID": "1270", "POINT_Y": "1876518.81702", "POINT_X": "1178962.667585", "LONGNAME": "43rd", "ADDRESS": "314 E. 43rd Street", "GTFS": "41270", "Field_1": "43rd" }, "geometry": { "type": "Point", "coordinates": [ -87.61903578127783, 41.816463221939948 ] } },
{ "type": "Feature", "properties": { "Name": "Irving Park", "description": null, "altitudeMode": "clampToGround", "PKNRD": "No", "ADA": "Not ADA  Accessible", "LINES": "Blue Line", "STATION_ID": "550", "POINT_Y": "1926020.539691", "POINT_X": "1148588.588581", "LONGNAME": "Irving Park-O'Hare", "ADDRESS": "4131 W. Irving Park Road", "GTFS": "40550", "Field_1": "Irving Park" }, "geometry": { "type": "Point", "coordinates": [ -87.729177265582038, 41.952940260785553 ] } },
{ "type": "Feature", "properties": { "Name": "Monroe", "description": null, "altitudeMode": "clampToGround", "PKNRD": "No", "ADA": "Not ADA  Accessible", "LINES": "Blue Line", "STATION_ID": "790", "POINT_Y": "1899904.518418", "POINT_X": "1175951.621183", "LONGNAME": "Monroe\/Dearborn", "ADDRESS": "114 S. Dearborn", "GTFS": "40790", "Field_1": "Monroe" }, "geometry": { "type": "Point", "coordinates": [ -87.629377700452196, 41.880703460253073 ] } },
{ "type": "Feature", "properties": { "Name": "Kimball", "description": null, "altitudeMode": "clampToGround", "PKNRD": "Yes", "ADA": "ADA Accessible", "LINES": "Brown Line", "STATION_ID": "1290", "POINT_Y": "1931513.337392", "POINT_X": "1152910.875945", "LONGNAME": "Kimball", "ADDRESS": "4755 N. Kimball Avenue", "GTFS": "41290", "Field_1": "Kimball" }, "geometry": { "type": "Point", "coordinates": [ -87.713142035328289, 41.967928150585593 ] } },
{ "type": "Feature", "properties": { "Name": "Kedzie", "description": null, "altitudeMode": "clampToGround", "PKNRD": "No", "ADA": "ADA Accessible", "LINES": "Brown Line", "STATION_ID": "1180", "POINT_Y": "1930852.948271", "POINT_X": "1154084.662314", "LONGNAME": "Kedzie-Ravenswood", "ADDRESS": "4648 N. Kedzie Avenue", "GTFS": "41180", "Field_1": "Kedzie" }, "geometry": { "type": "Point", "coordinates": [ -87.708843792528768, 41.966092606099863 ] } },
{ "type": "Feature", "properties": { "Name": "Medical District", "description": null, "altitudeMode": "clampToGround", "PKNRD": "No", "ADA": "ADA Accessible", "LINES": "Blue Line", "STATION_ID": "810", "POINT_Y": "1897961.331984", "POINT_X": "1163828.914995", "LONGNAME": "Illinois Medical District", "ADDRESS": "430 S. Damen Avenue", "GTFS": "40810", "Field_1": "Medical District" }, "geometry": { "type": "Point", "coordinates": [ -87.673945879718161, 41.875635427831078 ] } },
{ "type": "Feature", "properties": { "Name": "Austin", "description": null, "altitudeMode": "clampToGround", "PKNRD": "No", "ADA": "Not ADA  Accessible", "LINES": "Blue Line", "STATION_ID": "10", "POINT_Y": "1896032.408335", "POINT_X": "1135832.541209", "LONGNAME": "Austin-Congress", "ADDRESS": "1050 S. Austin Blvd", "GTFS": "40010", "Field_1": "Austin" }, "geometry": { "type": "Point", "coordinates": [ -87.776785269255129, 41.870886392801367 ] } },
{ "type": "Feature", "properties": { "Name": "Logan Square", "description": null, "altitudeMode": "clampToGround", "PKNRD": "No", "ADA": "ADA Accessible", "LINES": "Blue Line", "STATION_ID": "1020", "POINT_Y": "1917602.196771", "POINT_X": "1154263.501098", "LONGNAME": "Logan Square", "ADDRESS": "2620 N. Milwaukee Av", "GTFS": "41020", "Field_1": "Logan Square" }, "geometry": { "type": "Point", "coordinates": [ -87.708541386020499, 41.929728041313567 ] } },
{ "type": "Feature", "properties": { "Name": "51st", "description": null, "altitudeMode": "clampToGround", "PKNRD": "No", "ADA": "ADA Accessible", "LINES": "Green Line", "STATION_ID": "130", "POINT_Y": "1871283.076344", "POINT_X": "1179151.842113", "LONGNAME": "51st", "ADDRESS": "314 E. 51st Street", "GTFS": "40130", "Field_1": "51st" }, "geometry": { "type": "Point", "coordinates": [ -87.618501599875941, 41.802091583406217 ] } },
{ "type": "Feature", "properties": { "Name": "Ashland", "description": null, "altitudeMode": "clampToGround", "PKNRD": "No", "ADA": "ADA Accessible", "LINES": "Orange Line", "STATION_ID": "1060", "POINT_Y": "1884759.337732", "POINT_X": "1166283.243574", "LONGNAME": "Ashland-Midway", "ADDRESS": "3011 S. Ashland Avenue", "GTFS": "41060", "Field_1": "Ashland" }, "geometry": { "type": "Point", "coordinates": [ -87.665311663328609, 41.839355877855773 ] } },
{ "type": "Feature", "properties": { "Name": "18th", "description": null, "altitudeMode": "clampToGround", "PKNRD": "No", "ADA": "ADA Accessible", "LINES": "Pink", "STATION_ID": "830", "POINT_Y": "1891511.434506", "POINT_X": "1165182.263348", "LONGNAME": "18th", "ADDRESS": "1710 W. 18th Street", "GTFS": "40830", "Field_1": "18th" }, "geometry": { "type": "Point", "coordinates": [ -87.669160124880079, 41.857907707493787 ] } },
{ "type": "Feature", "properties": { "Name": "Western", "description": null, "altitudeMode": "clampToGround", "PKNRD": "No", "ADA": "ADA Accessible", "LINES": "Pink", "STATION_ID": "740", "POINT_Y": "1890198.732809", "POINT_X": "1160828.02104", "LONGNAME": "Western-Douglas", "ADDRESS": "2009 S. Western Avenue", "GTFS": "40740", "Field_1": "Western" }, "geometry": { "type": "Point", "coordinates": [ -87.685179221059769, 41.854396836563119 ] } },
{ "type": "Feature", "properties": { "Name": "Davis", "description": null, "altitudeMode": "clampToGround", "PKNRD": "No", "ADA": "ADA Accessible", "LINES": "Purple Line, Evanston Express", "STATION_ID": "50", "POINT_Y": "1960646.079307", "POINT_X": "1160739.716144", "LONGNAME": "Davis", "ADDRESS": "1612 N. Benson Avenue", "GTFS": "40050", "Field_1": "Davis" }, "geometry": { "type": "Point", "coordinates": [ -87.683542925868366, 42.047710093660037 ] } },
{ "type": "Feature", "properties": { "Name": "Cumberland", "description": null, "altitudeMode": "clampToGround", "PKNRD": "Yes", "ADA": "ADA Accessible", "LINES": "Blue Line", "STATION_ID": "230", "POINT_Y": "1937256.045877", "POINT_X": "1118914.130697", "LONGNAME": "Cumberland", "ADDRESS": "5800 N. Cumberland Avenue", "GTFS": "40230", "Field_1": "Cumberland" }, "geometry": { "type": "Point", "coordinates": [ -87.838025985047722, 41.984294056889958 ] } },
{ "type": "Feature", "properties": { "Name": "79th", "description": null, "altitudeMode": "clampToGround", "PKNRD": "No", "ADA": "ADA Accessible", "LINES": "Red Line", "STATION_ID": "240", "POINT_Y": "1852436.465894", "POINT_X": "1177486.458944", "LONGNAME": "79th", "ADDRESS": "15 W. 79th Street", "GTFS": "40240", "Field_1": "79th" }, "geometry": { "type": "Point", "coordinates": [ -87.62517835384935, 41.750412341792462 ] } },
{ "type": "Feature", "properties": { "Name": "O'Hare", "description": null, "altitudeMode": "clampToGround", "PKNRD": "No", "ADA": "ADA Accessible", "LINES": "Blue Line", "STATION_ID": "890", "POINT_Y": "1935188.075315", "POINT_X": "1101572.003065", "LONGNAME": "O'Hare Airport", "ADDRESS": "1000 O'Hare Drive", "GTFS": "40890", "Field_1": "O'Hare" }, "geometry": { "type": "Point", "coordinates": [ -87.901848400136615, 41.978876737941128 ] } },
{ "type": "Feature", "properties": { "Name": "Belmont", "description": null, "altitudeMode": "clampToGround", "PKNRD": "No", "ADA": "ADA Accessible", "LINES": "Red, Brown, Purple (Express)", "STATION_ID": "1320", "POINT_Y": "1921368.701478", "POINT_X": "1169244.560184", "LONGNAME": "Belmont-North Main", "ADDRESS": "945 W. Belmont Avenue", "GTFS": "41320", "Field_1": "Belmont" }, "geometry": { "type": "Point", "coordinates": [ -87.653380487992564, 41.939750745214617 ] } },
{ "type": "Feature", "properties": { "Name": "Howard", "description": null, "altitudeMode": "clampToGround", "PKNRD": "Yes", "ADA": "ADA Accessible", "LINES": "Red, Yellow, Purple, Evanston Express", "STATION_ID": "900", "POINT_Y": "1950229.068353", "POINT_X": "1163713.080115", "LONGNAME": "Howard", "ADDRESS": "1649 W. Howard Street", "GTFS": "40900", "Field_1": "Howard" }, "geometry": { "type": "Point", "coordinates": [ -87.672892450790201, 42.019063219235839 ] } },
{ "type": "Feature", "properties": { "Name": "Laramie", "description": null, "altitudeMode": "clampToGround", "PKNRD": "No", "ADA": "ADA Accessible", "LINES": "Green Line (Lake)", "STATION_ID": "700", "POINT_Y": "1902002.904596", "POINT_X": "1141729.752607", "LONGNAME": "Laramie", "ADDRESS": "5148 W. Lake Street", "GTFS": "40700", "Field_1": "Laramie" }, "geometry": { "type": "Point", "coordinates": [ -87.754986494281084, 41.887163225606137 ] } },
{ "type": "Feature", "properties": { "Name": "Central", "description": null, "altitudeMode": "clampToGround", "PKNRD": "No", "ADA": "ADA Accessible", "LINES": "Green Line (Lake)", "STATION_ID": "280", "POINT_Y": "1902065.7933", "POINT_X": "1138825.735196", "LONGNAME": "Central-Lake", "ADDRESS": "350 N. Central Avenue", "GTFS": "40280", "Field_1": "Central" }, "geometry": { "type": "Point", "coordinates": [ -87.765649505505991, 41.887389013503693 ] } },
{ "type": "Feature", "properties": { "Name": "Jarvis", "description": null, "altitudeMode": "clampToGround", "PKNRD": "No", "ADA": "Not ADA  Accessible", "LINES": "Red Line", "STATION_ID": "1190", "POINT_Y": "1949075.678528", "POINT_X": "1164754.772276", "LONGNAME": "Jarvis", "ADDRESS": "1523 W. Jarvis Street", "GTFS": "41190", "Field_1": "Jarvis" }, "geometry": { "type": "Point", "coordinates": [ -87.669092112018205, 42.015876180009698 ] } },
{ "type": "Feature", "properties": { "Name": "Roosevelt", "description": null, "altitudeMode": "clampToGround", "PKNRD": "No", "ADA": "ADA Accessible", "LINES": "Red Line", "STATION_ID": "1400", "POINT_Y": "1895049.388302", "POINT_X": "1176529.511231", "LONGNAME": "Roosevelt\/State", "ADDRESS": "1167 S. State Street", "GTFS": "41400", "Field_1": "Roosevelt" }, "geometry": { "type": "Point", "coordinates": [ -87.627402382947309, 41.867367665074603 ] } },
{ "type": "Feature", "properties": { "Name": "Western", "description": null, "altitudeMode": "clampToGround", "PKNRD": "No", "ADA": "Not ADA  Accessible", "LINES": "Blue Line (Congress)", "STATION_ID": "220", "POINT_Y": "1897892.777744", "POINT_X": "1159883.322928", "LONGNAME": "Western-Congress", "ADDRESS": "430 S. Western Avenue", "GTFS": "40220", "Field_1": "Western" }, "geometry": { "type": "Point", "coordinates": [ -87.688434511045529, 41.875529573040133 ] } },
{ "type": "Feature", "properties": { "Name": "Polk", "description": null, "altitudeMode": "clampToGround", "PKNRD": "No", "ADA": "ADA Accessible", "LINES": "Pink", "STATION_ID": "1030", "POINT_Y": "1896486.588943", "POINT_X": "1165039.424308", "LONGNAME": "Polk", "ADDRESS": "1713 W. Polk Street", "GTFS": "41030", "Field_1": "Polk" }, "geometry": { "type": "Point", "coordinates": [ -87.669543227998716, 41.871563003390591 ] } },
{ "type": "Feature", "properties": { "Name": "Cicero", "description": null, "altitudeMode": "clampToGround", "PKNRD": "No", "ADA": "Not ADA  Accessible", "LINES": "Blue Line (Congress)", "STATION_ID": "970", "POINT_Y": "1896352.789263", "POINT_X": "1144440.976673", "LONGNAME": "Cicero-Congress", "ADDRESS": "720 S. Cicero Avenue", "GTFS": "40970", "Field_1": "Cicero" }, "geometry": { "type": "Point", "coordinates": [ -87.745172177913915, 41.871608049585319 ] } },
{ "type": "Feature", "properties": { "Name": "Kedzie", "description": null, "altitudeMode": "clampToGround", "PKNRD": "No", "ADA": "ADA Accessible", "LINES": "Green Line (Lake)", "STATION_ID": "1070", "POINT_Y": "1901060.632339", "POINT_X": "1155033.734187", "LONGNAME": "Kedzie-Lake", "ADDRESS": "3200 W. Lake Street", "GTFS": "41070", "Field_1": "Kedzie" }, "geometry": { "type": "Point", "coordinates": [ -87.706155420494781, 41.884321095280903 ] } },
{ "type": "Feature", "properties": { "Name": "Kedzie", "description": null, "altitudeMode": "clampToGround", "PKNRD": "Yes", "ADA": "ADA Accessible", "LINES": "Orange Line", "STATION_ID": "1150", "POINT_Y": "1871922.532344", "POINT_X": "1155746.785068", "LONGNAME": "Kedzie-Midway", "ADDRESS": "4900 S. Kedzie Avenue", "GTFS": "41150", "Field_1": "Kedzie" }, "geometry": { "type": "Point", "coordinates": [ -87.704320665718711, 41.80434840781755 ] } },
{ "type": "Feature", "properties": { "Name": "Diversey", "description": null, "altitudeMode": "clampToGround", "PKNRD": "No", "ADA": "ADA Accessible", "LINES": "Brown, Purple (Express)", "STATION_ID": "530", "POINT_Y": "1918811.409444", "POINT_X": "1169332.772152", "LONGNAME": "Diversey", "ADDRESS": "940 W. Diversey Avenue", "GTFS": "40530", "Field_1": "Diversey" }, "geometry": { "type": "Point", "coordinates": [ -87.65313085718887, 41.932731500068734 ] } },
{ "type": "Feature", "properties": { "Name": "Main", "description": null, "altitudeMode": "clampToGround", "PKNRD": "No", "ADA": "Not ADA  Accessible", "LINES": "Purple Line, Evanston Express", "STATION_ID": "270", "POINT_Y": "1955459.943238", "POINT_X": "1161867.215153", "LONGNAME": "Main", "ADDRESS": "836 N. Chicago Avenue", "GTFS": "40270", "Field_1": "Main" }, "geometry": { "type": "Point", "coordinates": [ -87.679537922710509, 42.033455709577517 ] } },
{ "type": "Feature", "properties": { "Name": "Thorndale", "description": null, "altitudeMode": "clampToGround", "PKNRD": "No", "ADA": "Not ADA  Accessible", "LINES": "Red Line", "STATION_ID": "880", "POINT_Y": "1939762.067511", "POINT_X": "1167550.174263", "LONGNAME": "Thorndale", "ADDRESS": "1118 W. Thorndale Avenue", "GTFS": "40880", "Field_1": "Thorndale" }, "geometry": { "type": "Point", "coordinates": [ -87.6590758588342, 41.990259493081112 ] } },
{ "type": "Feature", "properties": { "Name": "Fullerton", "description": null, "altitudeMode": "clampToGround", "PKNRD": "No", "ADA": "ADA Accessible", "LINES": "Red, Brown, Purple (Express)", "STATION_ID": "1220", "POINT_Y": "1916013.325345", "POINT_X": "1169427.095096", "LONGNAME": "Fullerton", "ADDRESS": "943  W. Fullerton Avenue", "GTFS": "41220", "Field_1": "Fullerton" }, "geometry": { "type": "Point", "coordinates": [ -87.652865837756195, 41.925051367651527 ] } },
{ "type": "Feature", "properties": { "Name": "Dempster", "description": null, "altitudeMode": "clampToGround", "PKNRD": "No", "ADA": "Not ADA  Accessible", "LINES": "Purple Line, Evanston Express", "STATION_ID": "690", "POINT_Y": "1958443.428425", "POINT_X": "1161283.708209", "LONGNAME": "Dempster", "ADDRESS": "1316 N. Sherman Avenue", "GTFS": "40690", "Field_1": "Dempster" }, "geometry": { "type": "Point", "coordinates": [ -87.681601986660937, 42.04165464377926 ] } },
{ "type": "Feature", "properties": { "Name": "Chicago", "description": null, "altitudeMode": "clampToGround", "PKNRD": "No", "ADA": "ADA Accessible", "LINES": "Brown, Purple (Express)", "STATION_ID": "710", "POINT_Y": "1905746.075928", "POINT_X": "1174115.154493", "LONGNAME": "Chicago\/Franklin", "ADDRESS": "300 W. Chicago Avenue", "GTFS": "40710", "Field_1": "Chicago" }, "geometry": { "type": "Point", "coordinates": [ -87.635946657066654, 41.896774170843422 ] } },
{ "type": "Feature", "properties": { "Name": "Francisco", "description": null, "altitudeMode": "clampToGround", "PKNRD": "No", "ADA": "ADA Accessible", "LINES": "Brown Line", "STATION_ID": "870", "POINT_Y": "1930887.061551", "POINT_X": "1156039.372332", "LONGNAME": "Francisco", "ADDRESS": "4648 N. Francisco Avenue", "GTFS": "40870", "Field_1": "Francisco" }, "geometry": { "type": "Point", "coordinates": [ -87.701655732511327, 41.966146894951713 ] } },
{ "type": "Feature", "properties": { "Name": "Paulina", "description": null, "altitudeMode": "clampToGround", "PKNRD": "No", "ADA": "ADA Accessible", "LINES": "Brown Line", "STATION_ID": "1310", "POINT_Y": "1922773.867048", "POINT_X": "1164471.229748", "LONGNAME": "Paulina", "ADDRESS": "3411 N. Paulina Street", "GTFS": "41310", "Field_1": "Paulina" }, "geometry": { "type": "Point", "coordinates": [ -87.670883943579241, 41.94370914759255 ] } },
{ "type": "Feature", "properties": { "Name": "Montrose", "description": null, "altitudeMode": "clampToGround", "PKNRD": "No", "ADA": "ADA Accessible", "LINES": "Brown Line", "STATION_ID": "1500", "POINT_Y": "1929339.66571", "POINT_X": "1163255.951923", "LONGNAME": "Montrose-Ravenswood", "ADDRESS": "1814 W. Montrose Avenue", "GTFS": "41500", "Field_1": "Montrose" }, "geometry": { "type": "Point", "coordinates": [ -87.675165390636181, 41.961751710371779 ] } },
{ "type": "Feature", "properties": { "Name": "State\/Lake", "description": null, "altitudeMode": "clampToGround", "PKNRD": "No", "ADA": "Not ADA  Accessible", "LINES": "Brown, Orange, Pink,  Purple (Express), Green", "STATION_ID": "260", "POINT_Y": "1901743.429396", "POINT_X": "1176356.594239", "LONGNAME": "State\/Lake", "ADDRESS": "200 N. State Street", "GTFS": "40260", "Field_1": "State\/Lake" }, "geometry": { "type": "Point", "coordinates": [ -87.627835180660938, 41.885740409881222 ] } },
{ "type": "Feature", "properties": { "Name": "Lake", "description": null, "altitudeMode": "clampToGround", "PKNRD": "No", "ADA": "ADA Accessible", "LINES": "Red Line", "STATION_ID": "1660", "POINT_Y": "1901404.02434", "POINT_X": "1176365.321279", "LONGNAME": "Lake\/State", "ADDRESS": "188 N. State", "GTFS": "40260", "Field_1": "Lake" }, "geometry": { "type": "Point", "coordinates": [ -87.627813380445915, 41.884808866897522 ] } },
{ "type": "Feature", "properties": { "Name": "Austin", "description": null, "altitudeMode": "clampToGround", "PKNRD": "No", "ADA": "Not ADA  Accessible", "LINES": "Green Line (Lake)", "STATION_ID": "1260", "POINT_Y": "1902015.55586", "POINT_X": "1136515.354138", "LONGNAME": "Austin-Lake", "ADDRESS": "351 N. Austin Blvd", "GTFS": "41260", "Field_1": "Austin" }, "geometry": { "type": "Point", "coordinates": [ -87.774135255522751, 41.88729278376865 ] } },
{ "type": "Feature", "properties": { "Name": "Clinton", "description": null, "altitudeMode": "clampToGround", "PKNRD": "No", "ADA": "ADA Accessible", "LINES": "Green (Lake), Pink", "STATION_ID": "1160", "POINT_Y": "1901699.061012", "POINT_X": "1172561.886779", "LONGNAME": "Clinton-Lake", "ADDRESS": "540 W. Lake Street", "GTFS": "41160", "Field_1": "Clinton" }, "geometry": { "type": "Point", "coordinates": [ -87.641771304142864, 41.88570342273843 ] } },
{ "type": "Feature", "properties": { "Name": "Chicago", "description": null, "altitudeMode": "clampToGround", "PKNRD": "No", "ADA": "Not ADA  Accessible", "LINES": "Blue Line", "STATION_ID": "1410", "POINT_Y": "1905449.333527", "POINT_X": "1168871.484984", "LONGNAME": "Chicago\/Milwaukee", "ADDRESS": "800 N. Milwaukee Avenue", "GTFS": "41410", "Field_1": "Chicago" }, "geometry": { "type": "Point", "coordinates": [ -87.655214279174928, 41.896075236465762 ] } },
{ "type": "Feature", "properties": { "Name": "California", "description": null, "altitudeMode": "clampToGround", "PKNRD": "No", "ADA": "Not ADA  Accessible", "LINES": "Blue Line (O'Hare)", "STATION_ID": "570", "POINT_Y": "1914787.239456", "POINT_X": "1157455.120685", "LONGNAME": "California\/Milwaukee", "ADDRESS": "2211 N. California Avenue", "GTFS": "40570", "Field_1": "California" }, "geometry": { "type": "Point", "coordinates": [ -87.696889798787893, 41.921939170564613 ] } },
{ "type": "Feature", "properties": { "Name": "Montrose", "description": null, "altitudeMode": "clampToGround", "PKNRD": "No", "ADA": "Not ADA  Accessible", "LINES": "Blue Line", "STATION_ID": "1330", "POINT_Y": "1929107.506477", "POINT_X": "1144639.346721", "LONGNAME": "Montrose-O'Hare", "ADDRESS": "4600 W. Montrose Avenue", "GTFS": "41330", "Field_1": "Montrose" }, "geometry": { "type": "Point", "coordinates": [ -87.743616974308225, 41.961486632102833 ] } },
{ "type": "Feature", "properties": { "Name": "87th", "description": null, "altitudeMode": "clampToGround", "PKNRD": "No", "ADA": "ADA Accessible", "LINES": "Red Line", "STATION_ID": "1430", "POINT_Y": "1846956.573409", "POINT_X": "1177647.63808", "LONGNAME": "87th", "ADDRESS": "15 W. 87th Street", "GTFS": "41430", "Field_1": "87th" }, "geometry": { "type": "Point", "coordinates": [ -87.624753073249423, 41.735371210437791 ] } },
{ "type": "Feature", "properties": { "Name": "Sox-35th", "description": null, "altitudeMode": "clampToGround", "PKNRD": "No", "ADA": "ADA Accessible", "LINES": "Red Line", "STATION_ID": "190", "POINT_Y": "1881859.322113", "POINT_X": "1175756.53587", "LONGNAME": "Sox-35th-Dan Ryan", "ADDRESS": "142 W. 35th Street", "GTFS": "40190", "Field_1": "Sox-35th" }, "geometry": { "type": "Point", "coordinates": [ -87.630636295120681, 41.83119055925151 ] } },
{ "type": "Feature", "properties": { "Name": "King Drive", "description": null, "altitudeMode": "clampToGround", "PKNRD": "No", "ADA": "ADA Accessible", "LINES": "Green Line", "STATION_ID": "1140", "POINT_Y": "1863287.024624", "POINT_X": "1180024.55149", "LONGNAME": "King Drive", "ADDRESS": "400 E. 63rd Street", "GTFS": "41140", "Field_1": "King Drive" }, "geometry": { "type": "Point", "coordinates": [ -87.615545883568558, 41.78012971578292 ] } },
{ "type": "Feature", "properties": { "Name": "Ashland", "description": null, "altitudeMode": "clampToGround", "PKNRD": "Yes", "ADA": "ADA Accessible", "LINES": "Green Line (Englewood)", "STATION_ID": "290", "POINT_Y": "1862752.12184", "POINT_X": "1166854.40799", "LONGNAME": "Ashland\/63rd", "ADDRESS": "6315 S. Ashland Avenue", "GTFS": "40290", "Field_1": "Ashland" }, "geometry": { "type": "Point", "coordinates": [ -87.663844848440206, 41.778953404700353 ] } },
{ "type": "Feature", "properties": { "Name": "Washington\/Wabash", "description": null, "altitudeMode": "clampToGround", "PKNRD": "No", "ADA": "ADA Accessible", "LINES": "Brown, Orange, Pink,  Purple (Express), Green", "STATION_ID": "1700", "POINT_Y": "1900828.687635", "POINT_X": "1176812.477247", "LONGNAME": "Washington\/Wabash", "ADDRESS": "29 N. Wabash", "GTFS": "41700", "Field_1": "Washington\/Wabash" }, "geometry": { "type": "Point", "coordinates": [ -87.626188784732349, 41.883220011998809 ] } },
{ "type": "Feature", "properties": { "Name": "Roosevelt", "description": null, "altitudeMode": "clampToGround", "PKNRD": "No", "ADA": "ADA Accessible", "LINES": "Orange & Green Lines", "STATION_ID": "410", "POINT_Y": "1895064.79899", "POINT_X": "1176750.705983", "LONGNAME": "Roosevelt\/Wabash", "ADDRESS": "22 E. Roosevelt Road", "GTFS": "<Null>", "Field_1": "Roosevelt" }, "geometry": { "type": "Point", "coordinates": [ -87.626589887002794, 41.867404958698657 ] } },
{ "type": "Feature", "properties": { "Name": "Lawrence", "description": null, "altitudeMode": "clampToGround", "PKNRD": "No", "ADA": "Not ADA  Accessible", "LINES": "Red Line", "STATION_ID": "770", "POINT_Y": "1932066.87544", "POINT_X": "1167769.274167", "LONGNAME": "Lawrence", "ADDRESS": "1117 W. Lawrence Avenue", "GTFS": "40770", "Field_1": "Lawrence" }, "geometry": { "type": "Point", "coordinates": [ -87.658492961736272, 41.969138939877453 ] } },
{ "type": "Feature", "properties": { "Name": "North\/Clybourn", "description": null, "altitudeMode": "clampToGround", "PKNRD": "No", "ADA": "Not ADA  Accessible", "LINES": "Red Line", "STATION_ID": "650", "POINT_Y": "1910775.102492", "POINT_X": "1170472.731193", "LONGNAME": "North\/Clybourn", "ADDRESS": "1599 N. Clybourn Avenue", "GTFS": "40650", "Field_1": "North\/Clybourn" }, "geometry": { "type": "Point", "coordinates": [ -87.649177266871391, 41.910654579622559 ] } },
{ "type": "Feature", "properties": { "Name": "Noyes", "description": null, "altitudeMode": "clampToGround", "PKNRD": "No", "ADA": "Not ADA  Accessible", "LINES": "Purple Line, Evanston Express", "STATION_ID": "400", "POINT_Y": "1964499.180366", "POINT_X": "1160766.40312", "LONGNAME": "Noyes", "ADDRESS": "901 W. Noyes Street", "GTFS": "40400", "Field_1": "Noyes" }, "geometry": { "type": "Point", "coordinates": [ -87.683336881712478, 42.058282469731388 ] } },
{ "type": "Feature", "properties": { "Name": "Morse", "description": null, "altitudeMode": "clampToGround", "PKNRD": "No", "ADA": "Not ADA  Accessible", "LINES": "Red Line", "STATION_ID": "100", "POINT_Y": "1946344.119358", "POINT_X": "1165641.099061", "LONGNAME": "Morse", "ADDRESS": "1358 W. Morse Avenue", "GTFS": "40100", "Field_1": "Morse" }, "geometry": { "type": "Point", "coordinates": [ -87.665909089744204, 42.008361818504909 ] } },
{ "type": "Feature", "properties": { "Name": "Grand", "description": null, "altitudeMode": "clampToGround", "PKNRD": "No", "ADA": "ADA Accessible", "LINES": "Red Line", "STATION_ID": "330", "POINT_Y": "1903902.00527", "POINT_X": "1176288.179263", "LONGNAME": "Grand\/State", "ADDRESS": "521 N. State Street", "GTFS": "40330", "Field_1": "Grand" }, "geometry": { "type": "Point", "coordinates": [ -87.628021257395872, 41.891665200445978 ] } },
{ "type": "Feature", "properties": { "Name": "Rockwell", "description": null, "altitudeMode": "clampToGround", "PKNRD": "No", "ADA": "ADA Accessible", "LINES": "Brown Line", "STATION_ID": "1010", "POINT_Y": "1930925.255983", "POINT_X": "1158091.021614", "LONGNAME": "Rockwell", "ADDRESS": "4648 N. Rockwell Street", "GTFS": "41010", "Field_1": "Rockwell" }, "geometry": { "type": "Point", "coordinates": [ -87.694111124814611, 41.966209948539777 ] } },
{ "type": "Feature", "properties": { "Name": "Oak Park", "description": null, "altitudeMode": "clampToGround", "PKNRD": "No", "ADA": "Not ADA  Accessible", "LINES": "Blue Line", "STATION_ID": "180", "POINT_Y": "1896451.732495", "POINT_X": "1131794.163221", "LONGNAME": "Oak Park-Congress", "ADDRESS": "950 S. Oak Park Avenue", "GTFS": "40180", "Field_1": "Oak Park" }, "geometry": { "type": "Point", "coordinates": [ -87.791602149798322, 41.87210797327711 ] } },
{ "type": "Feature", "properties": { "Name": "Pulaski", "description": null, "altitudeMode": "clampToGround", "PKNRD": "Yes", "ADA": "ADA Accessible", "LINES": "Orange Line", "STATION_ID": "960", "POINT_Y": "1870257.601783", "POINT_X": "1150270.222375", "LONGNAME": "Pulaski-Midway", "ADDRESS": "5106 S. Pulaski Road", "GTFS": "40960", "Field_1": "Pulaski" }, "geometry": { "type": "Point", "coordinates": [ -87.724449642778438, 41.799887819461311 ] } },
{ "type": "Feature", "properties": { "Name": "Forest Park", "description": null, "altitudeMode": "clampToGround", "PKNRD": "Yes", "ADA": "ADA Accessible", "LINES": "Blue Line", "STATION_ID": "390", "POINT_Y": "1897191.7924", "POINT_X": "1124785.607183", "LONGNAME": "Forest Park", "ADDRESS": "711 S. Des Plaines Avenue", "GTFS": "40390", "Field_1": "Forest Park" }, "geometry": { "type": "Point", "coordinates": [ -87.817317779067679, 41.874257310352512 ] } },
{ "type": "Feature", "properties": { "Name": "Harlem", "description": null, "altitudeMode": "clampToGround", "PKNRD": "Yes", "ADA": "ADA Accessible", "LINES": "Blue Line (O'Hare)", "STATION_ID": "750", "POINT_Y": "1936585.066804", "POINT_X": "1126838.698769", "LONGNAME": "Harlem-O'Hare", "ADDRESS": "5550 N. Harlem Avenue", "GTFS": "40750", "Field_1": "Harlem" }, "geometry": { "type": "Point", "coordinates": [ -87.808894935032853, 41.982323369468567 ] } },
{ "type": "Feature", "properties": { "Name": "California", "description": null, "altitudeMode": "clampToGround", "PKNRD": "No", "ADA": "ADA Accessible", "LINES": "Green Line (Lake)", "STATION_ID": "1360", "POINT_Y": "1901043.522835", "POINT_X": "1157735.615534", "LONGNAME": "California-Lake", "ADDRESS": "2800 W. Lake Street", "GTFS": "41360", "Field_1": "California" }, "geometry": { "type": "Point", "coordinates": [ -87.696234216200082, 41.884219530688434 ] } },
{ "type": "Feature", "properties": { "Name": "Addison", "description": null, "altitudeMode": "clampToGround", "PKNRD": "No", "ADA": "ADA Accessible", "LINES": "Blue Line", "STATION_ID": "1240", "POINT_Y": "1924006.599721", "POINT_X": "1151344.5146", "LONGNAME": "Addison-O'Hare", "ADDRESS": "3622 W. Addison Street", "GTFS": "41240", "Field_1": "Addison" }, "geometry": { "type": "Point", "coordinates": [ -87.719099302152799, 41.947360101557273 ] } },
{ "type": "Feature", "properties": { "Name": "Western", "description": null, "altitudeMode": "clampToGround", "PKNRD": "Yes", "ADA": "ADA Accessible", "LINES": "Orange Line", "STATION_ID": "310", "POINT_Y": "1872085.726712", "POINT_X": "1161268.486449", "LONGNAME": "Western-Midway", "ADDRESS": "4901 S. Western Avenue", "GTFS": "40310", "Field_1": "Western" }, "geometry": { "type": "Point", "coordinates": [ -87.684064986760703, 41.804683559117429 ] } },
{ "type": "Feature", "properties": { "Name": "California", "description": null, "altitudeMode": "clampToGround", "PKNRD": "No", "ADA": "ADA Accessible", "LINES": "Pink", "STATION_ID": "440", "POINT_Y": "1890136.338697", "POINT_X": "1158201.073966", "LONGNAME": "California-Douglas", "ADDRESS": "2011 S. California Avenue", "GTFS": "40440", "Field_1": "California" }, "geometry": { "type": "Point", "coordinates": [ -87.694822915454367, 41.854279629389751 ] } },
{ "type": "Feature", "properties": { "Name": "54th\/Cermak", "description": null, "altitudeMode": "clampToGround", "PKNRD": "Yes", "ADA": "ADA Accessible", "LINES": "Pink", "STATION_ID": "580", "POINT_Y": "1889103.780104", "POINT_X": "1141351.978526", "LONGNAME": "54th\/Cermak", "ADDRESS": "2134 S. 54th Avenue", "GTFS": "40580", "Field_1": "54th\/Cermak" }, "geometry": { "type": "Point", "coordinates": [ -87.756692014772, 41.851773309026242 ] } },
{ "type": "Feature", "properties": { "Name": "Clinton", "description": null, "altitudeMode": "clampToGround", "PKNRD": "No", "ADA": "Not ADA  Accessible", "LINES": "Blue Line", "STATION_ID": "430", "POINT_Y": "1897996.84712", "POINT_X": "1172806.092092", "LONGNAME": "Clinton-Congress", "ADDRESS": "426 S. Clinton Street", "GTFS": "40430", "Field_1": "Clinton" }, "geometry": { "type": "Point", "coordinates": [ -87.640984216716959, 41.875538904061322 ] } },
{ "type": "Feature", "properties": { "Name": "Wilson", "description": null, "altitudeMode": "clampToGround", "PKNRD": "No", "ADA": "Not ADA  Accessible", "LINES": "Red Line", "STATION_ID": "540", "POINT_Y": "1930295.534383", "POINT_X": "1168029.494071", "LONGNAME": "Wilson", "ADDRESS": "4920 N. Broadway Street", "GTFS": "40540", "Field_1": "Wilson" }, "geometry": { "type": "Point", "coordinates": [ -87.657734045575054, 41.96425415900935 ] } },
{ "type": "Feature", "properties": { "Name": "Central", "description": null, "altitudeMode": "clampToGround", "PKNRD": "No", "ADA": "Not ADA  Accessible", "LINES": "Purple Line, Evanston Express", "STATION_ID": "1250", "POINT_Y": "1966573.104464", "POINT_X": "1160131.387184", "LONGNAME": "Central-Evanston", "ADDRESS": "1022 W. Central Avenue", "GTFS": "41250", "Field_1": "Central" }, "geometry": { "type": "Point", "coordinates": [ -87.685617256548298, 42.063986543210873 ] } },
{ "type": "Feature", "properties": { "Name": "Foster", "description": null, "altitudeMode": "clampToGround", "PKNRD": "No", "ADA": "Not ADA  Accessible", "LINES": "Purple Line, Evanston Express", "STATION_ID": "520", "POINT_Y": "1962996.532301", "POINT_X": "1160717.135152", "LONGNAME": "Foster", "ADDRESS": "900 W. Foster Street", "GTFS": "40520", "Field_1": "Foster" }, "geometry": { "type": "Point", "coordinates": [ -87.683560326389042, 42.05416022395341 ] } },
{ "type": "Feature", "properties": { "Name": "Sheridan", "description": null, "altitudeMode": "clampToGround", "PKNRD": "No", "ADA": "Not ADA  Accessible", "LINES": "Red Line", "STATION_ID": "80", "POINT_Y": "1926475.826475", "POINT_X": "1168782.699064", "LONGNAME": "Sheridan", "ADDRESS": "3940 N. Sheridan Road", "GTFS": "40080", "Field_1": "Sheridan" }, "geometry": { "type": "Point", "coordinates": [ -87.654929392192912, 41.953774946493937 ] } },
{ "type": "Feature", "properties": { "Name": "Clark\/Lake", "description": null, "altitudeMode": "clampToGround", "PKNRD": "No", "ADA": "ADA Accessible", "LINES": "Brown, Orange, Pink, Purple (Express), Green, Blue", "STATION_ID": "380", "POINT_Y": "1901735.36642", "POINT_X": "1175525.859134", "LONGNAME": "Clark\/Lake", "ADDRESS": "100 W. Lake", "GTFS": "40380", "Field_1": "Clark\/Lake" }, "geometry": { "type": "Point", "coordinates": [ -87.630886018339595, 41.885736985321671 ] } },
{ "type": "Feature", "properties": { "Name": "Clark\/Division", "description": null, "altitudeMode": "clampToGround", "PKNRD": "No", "ADA": "ADA Accessible", "LINES": "Red Line", "STATION_ID": "630", "POINT_Y": "1908360.200474", "POINT_X": "1175328.346174", "LONGNAME": "Clark\/Division", "ADDRESS": "1200 N. Clark Street", "GTFS": "40630", "Field_1": "Clark\/Division" }, "geometry": { "type": "Point", "coordinates": [ -87.631412293007088, 41.903920311895632 ] } },
{ "type": "Feature", "properties": { "Name": "Linden", "description": null, "altitudeMode": "clampToGround", "PKNRD": "Yes", "ADA": "ADA Accessible", "LINES": "Purple Line, Evanston Express", "STATION_ID": "1050", "POINT_Y": "1969902.898515", "POINT_X": "1158718.091054", "LONGNAME": "Linden", "ADDRESS": "349 W. Linden Avenue", "GTFS": "41050", "Field_1": "Linden" }, "geometry": { "type": "Point", "coordinates": [ -87.690729518559266, 42.073152761345767 ] } },
{ "type": "Feature", "properties": { "Name": "Merchandise Mart", "description": null, "altitudeMode": "clampToGround", "PKNRD": "No", "ADA": "ADA Accessible", "LINES": "Brown, Purple (Express)", "STATION_ID": "460", "POINT_Y": "1902905.856021", "POINT_X": "1174675.578173", "LONGNAME": "Merchandise Mart", "ADDRESS": "350 N. Wells Street", "GTFS": "40460", "Field_1": "Merchandise Mart" }, "geometry": { "type": "Point", "coordinates": [ -87.633973360288067, 41.888967932878273 ] } },
{ "type": "Feature", "properties": { "Name": "Southport", "description": null, "altitudeMode": "clampToGround", "PKNRD": "No", "ADA": "ADA Accessible", "LINES": "Brown Line", "STATION_ID": "360", "POINT_Y": "1922826.818344", "POINT_X": "1166449.96255", "LONGNAME": "Southport", "ADDRESS": "3411 N. Southport Avenue", "GTFS": "40360", "Field_1": "Southport" }, "geometry": { "type": "Point", "coordinates": [ -87.663609559941719, 41.94381225523734 ] } },
{ "type": "Feature", "properties": { "Name": "Jackson", "description": null, "altitudeMode": "clampToGround", "PKNRD": "No", "ADA": "ADA Accessible", "LINES": "Red Line", "STATION_ID": "560", "POINT_Y": "1898979.028497", "POINT_X": "1176444.434239", "LONGNAME": "Jackson\/State", "ADDRESS": "230 S. State", "GTFS": "40560", "Field_1": "Jackson" }, "geometry": { "type": "Point", "coordinates": [ -87.627596097564279, 41.878152756019396 ] } },
{ "type": "Feature", "properties": { "Name": "Rosemont", "description": null, "altitudeMode": "clampToGround", "PKNRD": "Yes", "ADA": "ADA Accessible", "LINES": "Blue Line", "STATION_ID": "820", "POINT_Y": "1936936.482101", "POINT_X": "1113107.880452", "LONGNAME": "Rosemont", "ADDRESS": "5801 N. River Road", "GTFS": "40820", "Field_1": "Rosemont" }, "geometry": { "type": "Point", "coordinates": [ -87.859387701671281, 41.983507286909031 ] } },
{ "type": "Feature", "properties": { "Name": "Division", "description": null, "altitudeMode": "clampToGround", "PKNRD": "No", "ADA": "Not ADA  Accessible", "LINES": "Blue Line", "STATION_ID": "320", "POINT_Y": "1908078.03625", "POINT_X": "1165779.323701", "LONGNAME": "Division\/Milwaukee", "ADDRESS": "1200 N. Milwaukee Avenue", "GTFS": "40320", "Field_1": "Division" }, "geometry": { "type": "Point", "coordinates": [ -87.666496066902241, 41.90335508455351 ] } },
{ "type": "Feature", "properties": { "Name": "63rd", "description": null, "altitudeMode": "clampToGround", "PKNRD": "No", "ADA": "ADA Accessible", "LINES": "Red Line", "STATION_ID": "910", "POINT_Y": "1863399.657456", "POINT_X": "1175808.13267", "LONGNAME": "63rd-Dan Ryan", "ADDRESS": "220 W. 63rd Street", "GTFS": "40910", "Field_1": "63rd" }, "geometry": { "type": "Point", "coordinates": [ -87.631000449070342, 41.780534333631628 ] } },
{ "type": "Feature", "properties": { "Name": "Indiana", "description": null, "altitudeMode": "clampToGround", "PKNRD": "No", "ADA": "ADA Accessible", "LINES": "Green Line", "STATION_ID": "300", "POINT_Y": "1878463.561726", "POINT_X": "1178284.914497", "LONGNAME": "Indiana", "ADDRESS": "4003 S. Indiana Avenue", "GTFS": "40300", "Field_1": "Indiana" }, "geometry": { "type": "Point", "coordinates": [ -87.621462811013686, 41.821815195562202 ] } },
{ "type": "Feature", "properties": { "Name": "Cicero", "description": null, "altitudeMode": "clampToGround", "PKNRD": "No", "ADA": "ADA Accessible", "LINES": "Green Line (Lake)", "STATION_ID": "480", "POINT_Y": "1901787.326484", "POINT_X": "1144532.748065", "LONGNAME": "Cicero-Lake", "ADDRESS": "4800 W. Lake Street", "GTFS": "40480", "Field_1": "Cicero" }, "geometry": { "type": "Point", "coordinates": [ -87.744698400195361, 41.886519352582241 ] } },
{ "type": "Feature", "properties": { "Name": "Quincy\/Wells", "description": null, "altitudeMode": "clampToGround", "PKNRD": "No", "ADA": "ADA Accessible", "LINES": "Brown, Orange, Pink, Purple (Express)", "STATION_ID": "40", "POINT_Y": "1899173.22933", "POINT_X": "1174769.559101", "LONGNAME": "Quincy\/Wells", "ADDRESS": "220 S. Wells Street", "GTFS": "40040", "Field_1": "Quincy\/Wells" }, "geometry": { "type": "Point", "coordinates": [ -87.633739975966307, 41.878723282552279 ] } },
{ "type": "Feature", "properties": { "Name": "Argyle", "description": null, "altitudeMode": "clampToGround", "PKNRD": "No", "ADA": "Not ADA  Accessible", "LINES": "Red Line", "STATION_ID": "1200", "POINT_Y": "1933638.97733", "POINT_X": "1167746.828087", "LONGNAME": "Argyle", "ADDRESS": "1118 W. Argyle Street", "GTFS": "41200", "Field_1": "Argyle" }, "geometry": { "type": "Point", "coordinates": [ -87.658529963524288, 41.973453321941491 ] } },
{ "type": "Feature", "properties": { "Name": "Irving Park", "description": null, "altitudeMode": "clampToGround", "PKNRD": "No", "ADA": "ADA Accessible", "LINES": "Brown Line", "STATION_ID": "1460", "POINT_Y": "1926705.985067", "POINT_X": "1163333.209139", "LONGNAME": "Irving Park-Ravenswood", "ADDRESS": "1816 W. Irving Park Dr", "GTFS": "41460", "Field_1": "Irving Park" }, "geometry": { "type": "Point", "coordinates": [ -87.674955743332262, 41.954523138596969 ] } },
{ "type": "Feature", "properties": { "Name": "Racine", "description": null, "altitudeMode": "clampToGround", "PKNRD": "No", "ADA": "Not ADA  Accessible", "LINES": "Blue Line", "STATION_ID": "470", "POINT_Y": "1898083.157521", "POINT_X": "1167774.555959", "LONGNAME": "Racine", "ADDRESS": "430 S. Racine Avenue", "GTFS": "40470", "Field_1": "Racine" }, "geometry": { "type": "Point", "coordinates": [ -87.659455509270046, 41.875885633841378 ] } },
{ "type": "Feature", "properties": { "Name": "Library", "description": null, "altitudeMode": "clampToGround", "PKNRD": "No", "ADA": "ADA Accessible", "LINES": "Brown, Orange, Pink, Purple (Express)", "STATION_ID": "850", "POINT_Y": "1898524.192017", "POINT_X": "1176281.206847", "LONGNAME": "Library", "ADDRESS": "26 W. Van Buren Street", "GTFS": "40850", "Field_1": "Library" }, "geometry": { "type": "Point", "coordinates": [ -87.628209144560756, 41.876908339486093 ] } },
{ "type": "Feature", "properties": { "Name": "69th", "description": null, "altitudeMode": "clampToGround", "PKNRD": "No", "ADA": "ADA Accessible", "LINES": "Red Line", "STATION_ID": "990", "POINT_Y": "1858977.892844", "POINT_X": "1177260.463424", "LONGNAME": "69th", "ADDRESS": "15 W. 69th Street", "GTFS": "40990", "Field_1": "69th" }, "geometry": { "type": "Point", "coordinates": [ -87.62580935004172, 41.768367864929743 ] } },
{ "type": "Feature", "properties": { "Name": "Midway", "description": null, "altitudeMode": "clampToGround", "PKNRD": "Yes", "ADA": "ADA Accessible", "LINES": "Orange Line", "STATION_ID": "930", "POINT_Y": "1865394.754546", "POINT_X": "1146620.917027", "LONGNAME": "Midway Airport", "ADDRESS": "4612 W. 59th Street", "GTFS": "40930", "Field_1": "Midway" }, "geometry": { "type": "Point", "coordinates": [ -87.737956371687687, 41.786613550097229 ] } },
{ "type": "Feature", "properties": { "Name": "Halsted", "description": null, "altitudeMode": "clampToGround", "PKNRD": "Yes", "ADA": "ADA Accessible", "LINES": "Orange Line", "STATION_ID": "1130", "POINT_Y": "1887545.796103", "POINT_X": "1170942.965562", "LONGNAME": "Halsted-Midway", "ADDRESS": "2520 S. Archer Avenue", "GTFS": "41130", "Field_1": "Halsted" }, "geometry": { "type": "Point", "coordinates": [ -87.648131104267449, 41.846901439936708 ] } },
{ "type": "Feature", "properties": { "Name": "Damen", "description": null, "altitudeMode": "clampToGround", "PKNRD": "No", "ADA": "ADA Accessible", "LINES": "Pink", "STATION_ID": "210", "POINT_Y": "1890260.804873", "POINT_X": "1163335.476019", "LONGNAME": "Damen", "ADDRESS": "2010 S. Damen Avenue", "GTFS": "40210", "Field_1": "Damen" }, "geometry": { "type": "Point", "coordinates": [ -87.675974096053409, 41.854514861091701 ] } },
{ "type": "Feature", "properties": { "Name": "Central Park", "description": null, "altitudeMode": "clampToGround", "PKNRD": "No", "ADA": "ADA Accessible", "LINES": "Pink", "STATION_ID": "780", "POINT_Y": "1889991.515913", "POINT_X": "1152737.528617", "LONGNAME": "Central Park", "ADDRESS": "1915 S. Central Park Avenue", "GTFS": "40780", "Field_1": "Central Park" }, "geometry": { "type": "Point", "coordinates": [ -87.714880264117596, 41.853991954007959 ] } },
{ "type": "Feature", "properties": { "Name": "Pulaski", "description": null, "altitudeMode": "clampToGround", "PKNRD": "No", "ADA": "ADA Accessible", "LINES": "Pink", "STATION_ID": "150", "POINT_Y": "1889923.883017", "POINT_X": "1150164.331558", "LONGNAME": "Pulaski-Douglas", "ADDRESS": "2005 S. Pulaski Road", "GTFS": "40150", "Field_1": "Pulaski" }, "geometry": { "type": "Point", "coordinates": [ -87.724326725020035, 41.853856830286951 ] } },
{ "type": "Feature", "properties": { "Name": "Kostner", "description": null, "altitudeMode": "clampToGround", "PKNRD": "No", "ADA": "ADA Accessible", "LINES": "Pink", "STATION_ID": "600", "POINT_Y": "1889868.062985", "POINT_X": "1147729.863972", "LONGNAME": "Kostner", "ADDRESS": "2019 S. Kostner Avenue", "GTFS": "40600", "Field_1": "Kostner" }, "geometry": { "type": "Point", "coordinates": [ -87.733263658613367, 41.853750686073603 ] } },
{ "type": "Feature", "properties": { "Name": "Cicero", "description": null, "altitudeMode": "clampToGround", "PKNRD": "No", "ADA": "ADA Accessible", "LINES": "Pink", "STATION_ID": "420", "POINT_Y": "1889179.920904", "POINT_X": "1144443.843873", "LONGNAME": "Cicero-Douglas", "ADDRESS": "2133 S. 48th Court", "GTFS": "40420", "Field_1": "Cicero" }, "geometry": { "type": "Point", "coordinates": [ -87.745342009859598, 41.851924714025792 ] } },
{ "type": "Feature", "properties": { "Name": "Cermak-Chinatown", "description": null, "altitudeMode": "clampToGround", "PKNRD": "No", "ADA": "ADA Accessible", "LINES": "Red Line", "STATION_ID": "1000", "POINT_Y": "1889880.865545", "POINT_X": "1175600.577598", "LONGNAME": "Cermak-Chinatown", "ADDRESS": "138 W. Cermak Road", "GTFS": "41000", "Field_1": "Cermak-Chinatown" }, "geometry": { "type": "Point", "coordinates": [ -87.630967826277669, 41.853205795076718 ] } },
{ "type": "Feature", "properties": { "Name": "Oakton-Skokie", "description": null, "altitudeMode": "clampToGround", "PKNRD": "No", "ADA": "ADA Accessible", "LINES": "Yellow Line", "STATION_ID": "1680", "POINT_Y": "1952698.681155", "POINT_X": "1143497.614368", "LONGNAME": "Oakton-Skokie", "ADDRESS": "4802 W Oakton", "GTFS": "41680", "Field_1": "Oakton-Skokie" }, "geometry": { "type": "Point", "coordinates": [ -87.747221013691089, 42.026243893621022 ] } },
{ "type": "Feature", "properties": { "Name": "Morgan", "description": null, "altitudeMode": "clampToGround", "PKNRD": "No", "ADA": "ADA Accessible", "LINES": "Green (Lake), Pink", "STATION_ID": "1510", "POINT_Y": "1901630.358292", "POINT_X": "1169742.118969", "LONGNAME": "Morgan", "ADDRESS": "1000 W Lake St", "GTFS": "41510", "Field_1": "Morgan" }, "geometry": { "type": "Point", "coordinates": [ -87.65212799206752, 41.885576787788636 ] } },
{ "type": "Feature", "properties": { "Name": "Cermak-McCormick Pl", "description": null, "altitudeMode": "clampToGround", "PKNRD": "No", "ADA": "ADA Accessible", "LINES": "Green Line", "STATION_ID": "1690", "POINT_Y": "1889858.017033", "POINT_X": "1176844.653375", "LONGNAME": "Cermak-McCormick Place", "ADDRESS": "12 E. Cermak Rd.", "GTFS": "41690", "Field_1": "Cermak-McCormick Pl" }, "geometry": { "type": "Point", "coordinates": [ -87.626402384928937, 41.853115082474673 ] } }
]
}
